[
  {
    "city": "brienz",
    "name": "Brienz",
    "longname": "Brienzwiler",
    "coordinates": {
      "lat": 46.75,
      "lon": 8.09
    },
    "aare": 8.3,
    "aare_prec": 8.29,
    "sy": 6,
    "tn": 15,
    "tx": 17,
    "forecast": false,
    "time": 1625771400,
    "url": "https://aareguru.existenz.ch/v2018/current?city=brienz",
    "today": "https://aareguru.existenz.ch/v2018/today?city=brienz",
    "widget": "https://aareguru.existenz.ch/v2018/widget?city=brienz"
  },
  {
    "city": "interlaken",
    "name": "Interlake",
    "longname": "Ringgenberg, Goldswil",
    "coordinates": {
      "lat": 46.69,
      "lon": 7.88
    },
    "aare": 12.5,
    "aare_prec": 12.47,
    "sy": 6,
    "tn": 14,
    "tx": 17,
    "forecast": false,
    "time": 1625771400,
    "url": "https://aareguru.existenz.ch/v2018/current?city=interlaken",
    "today": "https://aareguru.existenz.ch/v2018/today?city=interlaken",
    "widget": "https://aareguru.existenz.ch/v2018/widget?city=interlaken"
  },
  {
    "city": "thun",
    "name": "Thun",
    "longname": "Thun",
    "coordinates": {
      "lat": 46.76,
      "lon": 7.61
    },
    "aare": 15.8,
    "aare_prec": 15.76,
    "sy": 6,
    "tn": 15,
    "tx": 18,
    "forecast": false,
    "time": 1625771400,
    "url": "https://aareguru.existenz.ch/v2018/current?city=thun",
    "today": "https://aareguru.existenz.ch/v2018/today?city=thun",
    "widget": "https://aareguru.existenz.ch/v2018/widget?city=thun"
  },
  {
    "city": "bern",
    "name": "Bärn",
    "longname": "Bern, Schönau",
    "coordinates": {
      "lat": 46.93,
      "lon": 7.45
    },
    "aare": 15.4,
    "aare_prec": 15.44,
    "sy": 5,
    "tn": 14,
    "tx": 18,
    "forecast": false,
    "time": 1625771400,
    "url": "https://aareguru.existenz.ch/v2018/current?city=bern",
    "today": "https://aareguru.existenz.ch/v2018/today?city=bern",
    "widget": "https://aareguru.existenz.ch/v2018/widget?city=bern"
  },
  {
    "city": "hagneck",
    "name": "Hagneck",
    "longname": "Hagneck",
    "coordinates": {
      "lat": 47.06,
      "lon": 7.18
    },
    "aare": 15.5,
    "aare_prec": 15.46,
    "sy": 6,
    "tn": 14,
    "tx": 18,
    "forecast": false,
    "time": 1625771400,
    "url": "https://aareguru.existenz.ch/v2018/current?city=hagneck",
    "today": "https://aareguru.existenz.ch/v2018/today?city=hagneck",
    "widget": "https://aareguru.existenz.ch/v2018/widget?city=hagneck"
  },
  {
    "city": "biel",
    "name": "Biu",
    "longname": "Brügg, Aegerten",
    "coordinates": {
      "lat": 47.12,
      "lon": 7.28
    },
    "aare": 16.6,
    "aare_prec": 16.6,
    "sy": 6,
    "tn": 15,
    "tx": 18,
    "forecast": false,
    "time": 1625771400,
    "url": "https://aareguru.existenz.ch/v2018/current?city=biel",
    "today": "https://aareguru.existenz.ch/v2018/today?city=biel",
    "widget": "https://aareguru.existenz.ch/v2018/widget?city=biel"
  },
  {
    "city": "brugg",
    "name": "Brugg AG",
    "longname": "Brugg, Argou",
    "coordinates": {
      "lat": 47.48,
      "lon": 8.19
    },
    "aare": 17.1,
    "aare_prec": 17.1,
    "sy": 6,
    "tn": 15,
    "tx": 19,
    "forecast": false,
    "time": 1625770800,
    "url": "https://aareguru.existenz.ch/v2018/current?city=brugg",
    "today": "https://aareguru.existenz.ch/v2018/today?city=brugg",
    "widget": "https://aareguru.existenz.ch/v2018/widget?city=brugg"
  }
]